,City,Latitude,Longitude,Temperature,Humidity,Cloudiness,Wind Speed
0,Hermanus,-34.42,19.24,49.59,85,24,9.08
1,Lebu,8.96,38.73,55.4,93,90,9.17
2,Maine-Soroa,13.21,12.02,71.28,94,92,8.86
3,Kaitangata,-46.28,169.85,46.98,81,44,3.38
4,Sao Paulo de Olivenca,-3.38,-68.87,77.4,87,0,2.71
5,Ugoofaaru,5.67,73.0,82.53,100,76,13.78
6,Mataura,-46.19,168.86,46.62,88,20,4.5
7,Oranjemund,-28.55,16.43,57.33,100,0,10.98
8,Georgetown,6.8,-58.16,82.4,74,75,6.93
9,Santa Engracia,41.94,-1.32,82.45,54,0,11.41
10,Jian,25.65,87.89,80.1,94,76,2.82
11,Bluff,-23.58,149.07,67.77,78,80,7.96
12,Thompson,55.74,-97.86,62.6,45,40,5.82
13,Faanui,-16.48,-151.75,80.28,100,0,14.56
14,East London,-33.02,27.91,58.68,100,0,8.97
15,Ushuaia,-54.81,-68.31,33.8,80,40,5.82
16,Yelizovo,53.19,158.38,62.6,72,32,4.47
17,Bage,10.95,11.38,71.46,97,100,5.17
18,Kavieng,-2.57,150.8,76.23,100,92,6.06
19,Hobart,-42.88,147.33,46.4,75,75,8.05
20,Puerto Ayora,-0.74,-90.35,78.8,57,20,20.8
21,Key West,47.93,-96.78,78.78,51,40,11.41
22,Kutum,14.2,24.66,64.98,91,20,2.93
23,Lakes Entrance,-37.88,147.99,56.25,64,0,12.44
24,Tessalit,20.2,1.01,80.73,56,64,8.3
25,Saskylakh,71.97,114.09,57.24,71,0,13.67
26,Chunhuhub,19.59,-88.59,85.32,68,32,2.48
27,Punta Arenas,-53.16,-70.91,33.8,69,75,9.17
28,Pandamatenga,-18.54,25.64,57.51,45,0,6.06
29,Merauke,-8.49,140.4,78.84,91,88,11.43
30,Sitka,37.17,-99.65,96.93,29,12,16.46
31,Jamestown,-33.21,138.6,43.74,95,88,18.25
32,San Patricio,-26.98,-56.83,48.15,78,20,2.93
33,Shahrud,36.42,54.97,58.05,92,0,2.37
34,Porto Murtinho,-21.7,-57.88,60.3,98,92,5.84
35,Christchurch,-43.53,172.64,44.6,100,92,8.05
36,Hamilton,43.26,-79.87,87.8,48,40,13.87
37,Talnakh,69.49,88.39,43.56,97,88,9.08
38,Bilibino,68.06,166.44,56.34,53,24,2.37
39,Atuona,-9.8,-139.03,79.74,99,0,19.48
40,Busselton,-33.64,115.35,57.24,100,92,9.98
41,Luderitz,-26.65,15.16,51.93,93,0,13.44
42,Lorengau,-2.02,147.27,78.48,100,88,4.94
43,Bredasdorp,-34.53,20.04,51.8,66,0,8.05
44,Rikitea,-23.12,-134.97,73.89,100,20,16.24
45,Cape Town,-33.93,18.42,53.6,81,75,6.93
46,Kalmunai,7.42,81.82,71.46,95,24,0.81
47,Tuktoyaktuk,69.44,-133.03,48.2,93,90,17.22
48,Hambantota,6.12,81.12,80.64,96,24,19.48
49,Belaya Gora,68.54,146.19,49.5,69,64,9.31
50,Krapivinskiy,55.0,86.81,50.0,87,90,6.71
51,Esperance,10.24,-61.45,84.2,70,20,8.05
52,Barrow,-38.31,-60.23,52.2,48,8,12.21
53,Srednekolymsk,67.46,153.71,52.2,68,20,3.6
54,Severo-Kurilsk,50.68,156.12,55.53,91,24,3.15
55,Buchanan,5.88,-10.05,73.4,94,75,6.17
56,Albany,42.65,-73.75,85.95,43,20,3.36
57,Vardo,39.62,-77.74,85.95,52,5,2.37
58,Chuy,-33.69,-53.46,47.79,90,0,4.61
59,Ribeira Grande,38.52,-28.7,72.54,100,0,10.98
60,Scarborough,54.28,-0.41,68.0,72,8,3.36
61,Aswan,24.09,32.9,93.2,20,0,10.29
62,Port Elizabeth,39.31,-74.98,86.74,66,1,4.7
63,Port Blair,11.67,92.75,80.01,100,88,29.33
64,Shenjiamen,29.96,122.3,84.51,91,32,12.1
65,Longyearbyen,78.22,15.63,46.4,81,20,12.75
66,Pisco,-13.71,-76.2,66.2,72,20,12.75
67,Saint-Philippe,45.36,-73.48,86.41,58,1,9.17
68,Vaini,15.34,74.49,69.48,98,92,9.75
69,Alto Araguaia,-17.32,-53.22,70.38,69,92,5.84
70,Shingu,33.72,135.99,84.87,90,0,2.59
71,Tiksi,71.64,128.87,52.74,75,0,9.08
72,Nichinan,31.65,131.31,77.79,94,0,9.17
73,Aranda de Duero,41.67,-3.69,59.04,76,0,1.25
74,Constitucion,23.99,-104.67,82.4,15,75,10.29
75,Eyl,7.98,49.82,77.4,80,0,20.49
76,Victoria,5.28,115.24,75.96,94,75,2.24
77,Kapaa,22.08,-159.32,84.2,70,75,18.34
78,Ponta do Sol,-20.63,-46.0,61.02,89,20,3.94
79,Fortuna,38.18,-1.13,83.3,48,0,3.36
80,Havre,48.55,-109.68,80.6,32,20,9.17
81,Mahibadhoo,3.78,72.97,83.16,99,88,12.55
82,Mahebourg,-20.41,57.7,69.8,60,20,2.24
83,Vila,45.18,8.4,77.92,78,0,3.36
84,Victor Harbor,-35.55,138.62,50.0,71,75,23.04
85,Sawtell,-30.38,153.1,66.2,55,92,9.17
86,Henties Bay,-22.12,14.28,50.58,100,0,3.6
87,Umm Kaddadah,13.6,26.69,67.68,94,48,3.6
88,Wattegama,7.35,80.68,69.66,93,92,6.17
89,Steamboat Springs,40.48,-106.83,83.26,23,40,18.34
90,Qaanaaq,77.48,-69.36,41.49,82,80,10.2
91,Salamiyah,35.01,37.05,64.98,94,0,7.52
92,Olavarria,-36.89,-60.32,50.67,76,20,7.4
93,Kruisfontein,-34.0,24.73,51.21,94,0,7.96
94,Tuatapere,-46.13,167.69,48.15,100,0,2.15
95,Marion,35.21,-90.2,88.11,52,80,6.93
96,Mehamn,71.03,27.85,46.4,93,90,16.11
97,Panelas,-8.66,-36.01,66.42,90,24,4.83
98,Kilindoni,-7.91,39.67,76.32,100,0,6.85
99,Bethel,60.79,-161.76,55.4,100,90,21.92
100,Chitral,35.85,71.79,39.96,34,0,1.36
101,Kodiak,39.95,-94.76,95.0,39,1,17.22
102,Shahreza,32.01,51.87,51.3,52,0,2.48
103,Cayenne,4.94,-52.33,77.0,100,0,7.18
104,Omsukchan,62.53,155.8,51.12,97,92,3.6
105,Lavrentiya,65.58,-170.99,46.62,91,48,9.98
106,Tautira,-17.73,-149.15,86.0,58,20,10.29
107,Morondava,-20.3,44.28,61.92,100,0,2.93
108,Vila Franca do Campo,37.72,-25.43,69.8,77,40,10.29
109,Bambous Virieux,-20.34,57.76,69.8,60,20,2.24
110,Cidreira,-30.17,-50.22,53.1,91,12,10.2
111,Avarua,-21.21,-159.78,77.0,65,20,12.75
112,Lismore,-28.81,153.28,65.43,68,0,7.63
113,Ratne,51.67,24.52,63.36,94,0,6.62
114,Los Llanos de Aridane,28.66,-17.92,73.4,83,0,18.34
115,San Lorenzo de El Escorial,40.59,-4.15,84.15,17,0,3.36
116,Kailua,21.39,-157.74,83.57,94,90,5.82
117,Yurimaguas,-5.9,-76.1,89.6,55,20,5.82
118,Sao Joao da Barra,-21.64,-41.05,71.6,83,0,4.7
119,Imbituba,-28.24,-48.67,59.0,82,0,2.24
120,Hasaki,35.73,140.83,78.69,88,75,2.24
121,Nikolskoye,59.7,30.79,64.4,88,0,6.71
122,Port Alfred,-33.59,26.89,52.83,100,0,6.29
123,Castro,-42.48,-73.76,47.97,99,92,3.71
124,Ust-Nera,64.57,143.24,49.32,86,92,2.59
125,Antofagasta,-23.65,-70.4,57.2,76,0,12.75
126,Khatanga,71.98,102.47,58.05,81,44,15.23
127,Bunia,1.56,30.25,60.21,96,48,0.92
128,Dhekiajuli,26.71,92.48,70.92,84,56,1.36
129,Leningradskiy,69.38,178.42,36.54,98,76,7.4
130,Kirakira,-10.46,161.92,80.82,100,36,15.79
131,Coihaique,-45.58,-72.07,46.17,70,75,3.36
132,Pevek,69.7,170.27,45.72,93,0,2.37
133,Xichang,27.88,102.25,61.38,71,44,1.7
134,Hilo,19.71,-155.08,80.6,74,90,10.29
135,Pilar,-34.46,-58.91,58.39,62,0,9.64
136,Sinazongwe,-17.26,27.46,58.68,82,0,2.26
137,Camrose,53.01,-112.84,75.2,47,75,8.05
138,Timbuktu,16.77,-3.01,83.79,66,0,10.98
139,Sinnamary,5.38,-52.96,81.0,97,12,10.2
140,Alofi,-19.06,-169.92,75.2,64,100,12.75
141,Sinjai,-5.12,120.25,72.36,100,0,1.92
142,Miami,25.77,-80.19,87.8,55,20,14.99
143,Nome,30.04,-94.42,88.23,62,90,6.93
144,Isangel,-19.55,169.27,71.19,100,24,13.89
145,Loandjili,-4.77,11.87,69.8,94,40,2.24
146,Yellowknife,62.45,-114.38,57.2,87,90,5.82
147,Camopi,3.17,-52.33,76.5,85,48,2.71
148,Butaritari,3.07,172.79,84.96,100,48,3.6
149,Kabansk,52.06,106.65,62.6,93,75,2.24
150,Baruun-Urt,46.68,113.28,65.34,81,20,4.72
151,Katsuura,33.93,134.5,82.4,83,20,8.05
152,Kratovo,42.08,22.18,66.2,77,0,2.24
153,Amiens,49.89,2.3,65.52,72,0,7.74
154,Namibe,-15.19,12.15,65.16,98,0,12.33
155,New Norfolk,-42.78,147.06,46.4,75,75,8.05
156,Pangnirtung,66.15,-65.72,43.02,91,92,23.51
157,Mar del Plata,-46.43,-67.52,48.78,81,48,3.38
158,Timizart,36.8,4.25,66.42,97,0,1.59
159,Solenzo,12.18,-4.08,74.43,90,92,3.94
160,Gat,14.69,-16.54,78.84,87,92,10.42
161,Vangaindrano,-23.35,47.6,57.96,95,0,3.71
162,Necochea,-38.55,-58.74,51.21,69,0,10.31
163,Umaria,23.52,80.84,72.9,96,80,7.96
164,Centralia,39.21,-92.14,96.8,28,1,5.82
165,Kavaratti,10.57,72.64,82.08,98,76,19.71
166,Erzin,36.95,36.2,78.8,83,40,5.82
167,Strangnas,59.38,17.03,59.38,82,0,6.93
168,Port Hedland,-20.31,118.58,51.8,40,0,9.17
169,Leh,34.16,77.58,29.61,93,76,1.14
170,Torbay,47.66,-52.73,55.4,93,90,18.34
171,Mikhaylovka,52.96,103.29,63.0,91,80,5.84
172,Diego de Almagro,-26.39,-70.05,53.19,87,0,2.71
173,Trincomalee,8.58,81.23,79.56,70,44,19.71
174,Lamar,38.09,-102.62,95.0,32,1,12.75
175,Pontianak,-0.02,109.34,79.11,88,56,7.96
176,Guozhen,29.3,113.14,85.23,83,0,6.17
177,Yar-Sale,66.83,70.83,47.52,100,44,5.17
178,Wajima,37.4,136.9,77.94,100,92,3.15
179,Saint-Pierre,48.95,4.24,70.79,56,0,6.93
180,Hailar,49.2,119.7,64.89,99,68,6.73
181,Weymouth,42.22,-70.94,84.36,69,1,4.7
182,Hereford,52.06,-2.72,59.31,89,0,5.5
183,Vadlapudi,14.32,79.8,82.8,60,88,14.67
184,Saint George,39.45,22.34,68.0,64,20,2.24
185,Darhan,49.49,105.92,62.28,95,0,4.16
186,Honningsvag,70.98,25.97,46.4,93,90,16.11
187,Ambato,-1.24,-78.63,62.6,59,40,17.22
188,Juneau,58.3,-134.42,72.36,53,75,10.29
189,Chokurdakh,70.62,147.9,38.7,88,64,11.99
190,Mwene-Ditu,-7.01,23.45,60.93,49,0,7.74
191,Tabuk,17.41,121.44,72.54,91,36,1.03
192,Bonavista,48.65,-53.11,64.8,83,56,10.98
193,Fort Nelson,58.81,-122.69,82.4,30,75,10.29
194,Blora,-6.97,111.41,70.29,73,0,8.19
195,Husavik,50.56,-96.99,64.53,88,8,14.45
196,Yarada,17.65,83.27,82.08,100,80,25.19
197,Douala,4.04,9.71,75.2,100,75,3.83
198,Puerto del Rosario,28.5,-13.86,77.77,61,0,10.29
199,Oranjestad,12.52,-70.03,84.2,74,20,25.28
200,Bambari,5.77,20.68,71.46,95,80,5.61
201,Laibin,23.74,109.23,75.06,99,92,2.93
202,Verkhoyansk,67.55,133.39,57.78,52,0,8.41
203,Temax,21.15,-88.94,81.36,86,0,3.83
204,Aklavik,68.22,-135.01,51.8,81,90,6.93
205,Itupiranga,-5.13,-49.33,84.2,58,0,5.82
206,Iqaluit,63.75,-68.52,44.6,75,90,10.29
207,Yulara,-25.24,130.99,30.2,86,0,5.82
208,Calvinia,-31.47,19.78,29.7,87,8,1.92
209,Grand-Santi,4.27,-54.38,74.07,94,48,2.37
210,Dikson,73.51,80.55,39.96,100,88,15.68
211,Saint Leonard,38.47,-76.51,84.34,74,1,3.36
212,Ngunguru,-35.62,174.5,57.06,100,12,5.17
213,Muros,42.77,-9.06,78.8,69,0,4.7
214,Gorin,40.36,-92.02,92.07,43,1,10.29
215,Palmer,-34.85,139.16,50.0,71,75,23.04
216,General Roca,-39.03,-67.58,60.8,51,0,2.24
217,Codrington,-28.95,153.24,65.43,68,0,7.63
218,Besikduzu,41.05,39.23,75.2,69,40,4.7
219,Cockburn Town,21.46,-71.14,83.61,95,0,16.58
220,Columbus,32.46,-84.99,92.82,55,40,11.41
221,Praia da Vitoria,38.73,-27.07,71.6,78,75,12.21
222,Aleksandrov Gay,50.14,48.57,66.87,74,0,3.71
223,Hithadhoo,-0.6,73.08,78.12,100,20,7.63
224,Kopargaon,19.89,74.48,72.54,94,76,15.68
225,Cherskiy,68.75,161.3,54.27,54,0,3.71
226,Adrar,27.87,-0.29,96.8,12,0,11.41
227,Port-Gentil,-0.72,8.78,73.4,88,75,5.82
228,Namatanai,-3.66,152.44,78.84,100,88,4.5
229,Alta Floresta,-9.87,-56.08,83.07,66,12,1.48
230,Bongandanga,1.51,21.07,74.16,93,8,1.92
231,Tazovskiy,67.47,78.7,44.1,91,0,10.42
232,Petropavlovsk-Kamchatskiy,53.05,158.65,64.4,68,32,4.47
233,Synya,65.37,58.04,49.68,70,80,7.74
234,Homer,59.64,-151.54,66.2,68,90,9.17
235,Salalah,17.01,54.1,78.8,88,75,5.82
236,San Carlos de Bariloche,-41.13,-71.31,42.8,87,75,13.87
237,Upernavik,72.79,-56.15,44.73,81,24,4.05
238,Kuantan,3.82,103.33,77.0,94,75,3.83
239,Cabo San Lucas,22.89,-109.91,90.0,55,5,16.11
240,Airai,-8.93,125.41,70.65,74,0,1.7
241,San Cristobal,-0.39,-78.55,62.6,59,40,17.22
242,Broome,52.47,1.45,65.14,72,0,9.17
243,Turukhansk,65.8,87.96,48.15,100,92,9.53
244,Vilhena,-12.74,-60.15,73.4,78,0,8.05
245,Igarka,67.47,86.57,47.34,97,56,12.66
246,Giyani,-23.32,30.73,58.05,48,0,3.27
247,Lekoni,-1.58,14.26,69.03,93,76,6.17
248,Mogadishu,2.04,45.34,76.5,100,48,16.46
249,Marzuq,14.4,46.47,63.81,70,56,2.37
250,Florianopolis,-27.6,-48.55,59.0,82,0,2.24
251,Belyy Yar,53.6,91.39,53.6,71,40,13.42
252,Wittmund,53.58,7.78,59.0,93,20,3.36
253,Thinadhoo,0.53,72.93,81.72,100,44,10.76
254,Marsh Harbour,26.54,-77.06,83.7,98,0,13.33
255,Hillsborough,37.57,-122.38,77.88,87,0,10.29
256,Rudsar,37.14,50.29,78.8,88,75,4.7
257,Qasigiannguit,68.82,-51.19,51.8,50,40,4.7
258,Yarmouth,50.71,-1.5,64.81,77,0,1.12
259,Souillac,45.6,-0.6,77.99,57,0,1.12
260,Khamgaon,20.71,76.57,74.52,93,92,8.19
261,Aranos,-24.14,19.11,45.27,17,0,3.49
262,Inhambane,-23.87,35.38,69.48,97,0,12.77
263,Hongjiang,27.21,109.83,79.56,80,36,4.38
264,Nanortalik,60.14,-45.24,40.59,100,12,9.42
265,Vestmannaeyjar,63.44,-20.27,52.38,84,92,18.03
266,Provideniya,64.42,-173.23,48.2,81,90,13.42
267,Shimoda,34.7,138.93,80.6,88,40,1.12
268,Acapulco,16.86,-99.88,84.2,79,90,5.82
269,Yeppoon,-23.13,150.74,66.2,88,90,3.36
270,Lalmohan,22.34,90.74,79.47,100,92,8.19
271,Anadyr,64.73,177.51,50.0,93,90,6.71
272,Kpandae,8.46,-0.01,75.78,81,88,4.72
273,Ulaangom,49.98,92.07,50.67,84,68,3.15
274,Kisangani,0.52,25.21,70.11,98,8,2.26
275,Lasa,34.92,32.53,78.04,78,40,6.93
276,Great Yarmouth,52.61,1.73,64.4,72,0,9.17
277,Sakaiminato,35.55,133.23,80.6,78,75,4.7
278,Mae Ramat,16.98,98.52,71.55,99,92,2.37
279,Zhigansk,66.77,123.37,57.06,67,0,6.96
280,Tucuman,-17.17,-70.89,53.46,71,0,1.81
281,Santa Vitoria do Palmar,-33.52,-53.37,47.79,90,0,4.61
282,Mandurah,-32.55,115.7,46.4,100,90,5.82
283,Numan,9.46,12.04,70.83,100,92,7.85
284,Rome,41.89,12.48,78.87,74,20,3.36
285,Ostrovnoy,68.05,39.51,47.61,95,20,6.85
286,Vrangel,42.73,133.08,67.14,100,88,11.43
287,Arraial do Cabo,-22.97,-42.02,69.3,99,56,7.74
288,Kahului,20.89,-156.47,83.35,46,40,23.04
289,Chicama,-7.84,-79.15,64.4,82,20,9.17
290,Arman,59.7,150.17,62.6,82,40,4.47
291,Benghazi,32.12,20.07,82.17,96,0,15.01
292,Marawi,8.0,124.29,72.0,97,76,4.27
293,Mamallapuram,12.63,80.17,84.2,70,40,8.05
294,Lakatoro,-16.11,167.42,77.31,79,36,10.65
295,Cap-aux-Meules,47.38,-61.86,66.2,93,75,8.05
296,Williston,48.15,-103.62,79.72,39,1,5.5
297,Elizabeth City,36.3,-76.22,84.54,74,1,4.27
298,Berlevag,70.86,29.09,46.4,93,90,16.11
299,Texarkana,33.44,-94.04,93.2,38,1,5.82
300,Tasiilaq,65.61,-37.64,45.45,95,12,1.92
301,Kyaikkami,16.08,97.57,72.81,100,92,5.5
302,Kedougou,12.56,-12.19,72.09,91,48,6.73
303,Venice,27.1,-82.45,84.45,83,75,4.7
304,Hornepayne,49.22,-84.78,74.61,68,0,9.42
305,Comodoro Rivadavia,-45.87,-67.48,55.4,62,0,3.36
306,Tonshayevo,57.74,47.01,63.54,81,32,5.5
307,Ancud,-41.87,-73.83,49.41,97,100,5.61
308,Ambon,47.55,-2.56,75.2,57,0,5.82
309,Syracuse,43.05,-76.15,87.33,52,20,10.29
310,Sabha,27.03,14.43,87.66,20,68,12.44
311,Beira,43.2,-8.36,78.8,78,0,1.12
312,Maceio,-9.67,-35.74,69.8,94,0,3.36
313,Satipo,-11.26,-74.64,64.8,90,44,1.81
314,Lavumisa,-27.31,31.88,59.04,94,76,0.92
315,Mega,4.06,38.32,59.94,94,100,8.3
316,Kununurra,-15.77,128.74,59.0,67,0,4.7
317,Plettenberg Bay,-34.05,23.37,56.7,100,0,7.18
318,Sambava,-14.27,50.17,72.45,100,92,14.56
319,Richards Bay,-28.77,32.06,62.01,94,100,1.92
320,Douglas,31.34,-109.55,93.2,26,1,9.17
321,Fairbanks,64.84,-147.72,61.92,77,90,21.92
322,Poum,41.28,20.71,55.26,96,0,1.92
323,Clyde River,70.47,-68.59,37.4,93,90,11.41
324,Saint-Francois,46.42,3.91,78.8,50,0,5.82
325,Huizhou,23.11,114.41,80.28,92,36,3.83
326,Komatipoort,-25.43,31.96,62.91,89,0,7.74
327,Broken Hill,-31.97,141.45,51.66,56,20,22.06
328,Faya,18.39,42.45,66.15,88,0,9.17
329,Deputatskiy,69.3,139.9,53.1,47,0,3.83
330,Ambikapur,23.12,83.2,70.74,99,92,3.38
331,Lisakovsk,52.55,62.49,65.7,68,20,4.94
332,Mykolayivka,47.54,30.76,69.21,86,12,2.82
333,Beyneu,45.32,55.19,65.25,93,0,2.59
334,Severobaykalsk,55.65,109.32,53.91,98,100,3.38
335,Guerrero Negro,27.97,-114.04,83.61,55,0,13.44
336,Garmisch-Partenkirchen,47.49,11.1,69.75,73,75,3.36
337,Lompoc,34.64,-120.46,76.39,29,1,16.11
338,Hakkari,61.34,23.75,57.2,100,20,3.36
339,Royan,45.62,-1.03,77.0,57,0,1.12
340,Naze,5.43,7.07,75.2,94,75,2.24
341,Ormara,25.21,64.64,80.28,94,20,14.56
342,Carnarvon,-30.97,22.13,23.13,73,0,2.71
343,Sao Filipe,14.9,-24.5,77.76,98,92,5.73
344,The Valley,18.22,-63.06,83.34,74,40,12.75
345,Kudahuvadhoo,2.67,72.89,82.8,100,44,9.64
346,Ambilobe,-13.19,49.05,67.23,78,0,9.19
347,Goderich,43.74,-81.71,81.81,61,64,10.98
348,Gornopravdinsk,60.06,69.92,45.36,86,0,2.48
349,Bud,62.91,6.91,54.21,87,75,13.87
350,Simav,39.09,28.98,58.41,86,0,2.26
351,Pedasi,7.53,-80.03,82.53,100,20,6.96
352,Dunedin,-45.87,170.5,46.8,77,24,3.6
353,Le Port,42.87,1.37,55.53,89,0,1.36
354,Tsumeb,-19.25,17.72,57.51,67,0,3.38
355,Stromness,42.87,-79.55,85.42,65,1,6.93
356,Beringovskiy,63.05,179.32,51.12,100,88,5.61
357,Ballitoville,-29.54,31.21,58.68,84,80,4.27
358,Westport,53.8,-9.52,59.49,99,100,13.11
359,Heidenreichstein,48.87,15.12,61.2,93,68,1.59
360,Yumen,40.29,97.04,65.88,59,56,4.61
361,Zhangjiakou,40.77,114.88,73.35,85,64,4.38
362,Semey,50.41,80.25,64.53,46,68,5.95
363,Zaysan,47.47,84.87,54.18,81,56,2.15
364,Trinidad,-33.52,-56.9,42.39,81,0,4.94
365,Ahipara,-35.17,173.16,56.16,98,32,7.96
366,Punta Gorda,26.93,-82.05,84.33,83,90,4.7
367,Xingtai,37.07,114.49,80.1,96,64,6.4
368,Ada,47.3,-96.52,81.01,45,20,11.41
369,Starotimoshkino,53.72,47.54,70.29,58,64,6.96
370,Kirkuk,35.47,44.4,76.68,42,0,5.73
371,Nakhon Phanom,17.4,104.79,72.18,100,92,3.38
372,Rocha,-34.48,-54.34,43.83,88,0,4.61
373,Sumbe,-11.2,13.84,66.6,100,8,3.94
374,Rondonopolis,-16.46,-54.64,76.14,63,48,6.73
375,Awbari,26.59,12.77,89.82,17,80,3.6
376,Mayor Pablo Lagerenza,-19.93,-60.77,54.0,98,12,3.04
377,Maxixe,-23.86,35.35,69.48,97,0,12.77
378,Stepnoye,51.38,46.84,78.8,50,0,6.71
379,Palm Coast,29.55,-81.22,85.12,74,40,9.17
380,Palana,59.08,159.95,56.07,83,64,3.71
381,Cap Malheureux,-19.98,57.61,69.8,60,20,2.24
382,Wallaceburg,42.59,-82.38,89.33,58,1,4.7
383,Xining,36.62,101.77,56.97,87,56,0.69
384,Xifeng,42.73,124.72,72.36,78,36,3.71
385,Santa Rosa,-36.62,-64.29,48.69,70,48,3.04
386,Chisindia,46.29,22.1,69.8,94,36,1.12
387,Penticton,49.49,-119.59,86.4,25,20,10.29
388,Paamiut,61.99,-49.67,42.66,95,0,0.69
389,Lagoa,37.14,-8.45,75.2,78,0,3.36
390,Killybegs,54.63,-8.45,59.22,100,100,13.78
391,Sobreira,41.15,-8.39,69.04,94,40,1.92
392,Blackwater,51.33,-0.78,66.38,64,0,4.7
393,Kaeo,-35.1,173.78,56.16,98,24,4.61
394,Nelson Bay,-32.72,152.14,50.0,76,75,17.22
395,Narsaq,60.91,-46.05,46.4,75,0,6.93
396,Tapiramuta,-11.85,-40.79,71.01,68,0,6.85
397,Aykhal,65.95,111.51,55.08,56,0,6.17
398,Nagato,34.35,131.14,83.7,88,40,2.93
399,Ballina,54.11,-9.15,59.22,98,92,11.65
400,Camacha,33.08,-16.33,73.63,88,20,13.87
401,Mount Gambier,-37.83,140.78,46.8,100,76,6.96
402,Requena,39.49,-1.1,80.6,74,20,4.7
403,Huarmey,-10.07,-78.15,61.47,75,0,3.83
404,Lazaro Cardenas,28.39,-105.62,93.2,26,40,9.17
405,Nemuro,43.32,145.57,58.77,100,44,16.02
406,Bathsheba,13.22,-59.52,82.4,78,75,12.75
407,Cuajinicuilapa,16.47,-98.41,82.08,100,64,5.17
408,Yugorsk,61.32,63.33,42.3,84,36,2.48
409,Shepetivka,50.18,27.07,66.06,91,76,7.18
410,Chatrapur,19.35,84.98,81.63,100,64,6.96
411,Alice Springs,-23.7,133.88,41.0,44,0,6.93
412,Udachnyy,66.42,112.4,56.07,61,0,3.49
413,Clarence Town,-32.59,151.78,50.0,76,75,17.22
414,Rabat,34.02,-6.83,71.6,60,0,2.93
415,Baykit,61.68,96.39,47.16,92,0,6.17
416,Aden,12.79,45.03,80.55,93,12,3.15
417,San Jose de las Lajas,22.96,-82.15,87.8,70,40,12.75
418,Beloha,-25.17,45.06,50.13,79,0,2.93
419,Geraldton,49.72,-86.95,59.0,93,90,12.75
420,Padang,-0.92,100.36,75.24,100,92,5.39
421,Sistranda,63.73,8.83,53.6,87,75,17.22
422,Khandbari,27.38,87.21,45.54,65,24,1.7
423,Zhigalovo,54.81,105.15,58.59,97,8,2.93
424,Chipinge,-20.19,32.62,54.36,72,0,4.27
425,Pacific Grove,36.62,-121.92,73.67,27,1,13.87
426,Nantucket,41.28,-70.1,78.82,69,1,6.93
427,Neyvo-Rudyanka,57.34,60.13,59.4,78,36,4.72
428,Teahupoo,-17.83,-149.27,86.0,58,20,10.29
429,Mechanicsville,37.62,-77.34,80.87,66,20,6.93
430,Sinop,42.03,35.15,80.01,94,0,2.71
431,Maralal,1.1,36.7,47.43,92,0,2.26
432,Parkhill,54.73,-1.52,65.07,82,0,2.24
433,Camapua,-19.53,-54.04,63.27,89,92,11.99
434,Ouadda,8.07,22.4,67.95,96,56,6.96
435,Russell,-33.01,-68.8,60.8,44,0,3.36
436,Panama City,30.16,-85.65,79.03,83,1,6.85
437,Truro,50.26,-5.05,60.8,100,90,6.93
438,Doha,25.29,51.53,95.0,53,0,5.82
439,Ostersund,63.18,14.64,50.0,76,8,19.46
440,Sao Felix do Xingu,-6.64,-51.99,86.67,38,68,4.5
441,Santiago del Estero,-27.8,-64.26,65.61,33,0,14.9
442,Independencia,20.06,-97.05,84.2,70,90,9.17
443,Bethlehem,40.62,-75.38,88.74,74,1,2.93
444,Cururupu,-1.82,-44.87,77.04,87,8,7.18
445,Marigot,18.23,-72.32,73.4,94,75,1.12
446,Bogatoye,53.06,51.33,66.51,72,64,3.38
447,Sonoita,31.68,-110.66,96.44,33,75,16.11
448,Bocas del Toro,9.33,-82.25,79.74,100,56,9.75
449,Petrozavodsk,61.79,34.39,59.0,100,64,8.08
450,Sawakin,19.1,37.33,89.6,49,0,8.05
451,Port Hardy,50.7,-127.42,66.2,68,75,11.41
452,Vanimo,-2.67,141.3,81.45,100,56,5.84
453,Amga,60.89,131.98,51.12,87,88,3.6
454,Eureka,40.8,-124.16,64.87,68,1,10.29
455,Camacupa,-12.02,17.48,56.52,61,0,4.72
456,Litovko,49.24,135.18,75.15,73,0,3.15
457,Jumla,29.28,82.18,39.33,94,92,2.71
458,Sorland,67.67,12.69,55.53,100,76,10.76
459,Mareeba,-16.99,145.42,71.6,73,75,5.82
460,Mbuguni,-3.55,36.92,63.37,77,75,11.41
461,Ust-Maya,60.42,134.54,52.56,85,32,3.71
462,Norman Wells,65.28,-126.83,71.6,53,90,16.11
463,Xiaoyi,37.15,111.77,76.5,76,0,3.38
464,Kinsale,51.71,-8.52,57.2,87,20,8.05
465,Ternate,14.29,120.72,78.8,94,40,7.63
466,Klaksvik,62.23,-6.59,51.8,93,92,6.93
467,Manacapuru,-3.3,-60.62,80.37,82,8,2.37
468,Talara,-4.58,-81.27,73.4,73,0,9.75
469,Winneba,5.35,-0.62,77.0,78,0,12.75
470,Araouane,18.9,-3.53,86.94,45,0,9.08
471,Batticaloa,7.71,81.69,80.73,95,24,17.81
472,Progreso,-34.68,-56.22,53.6,71,0,2.24
473,Pocoes,-14.53,-40.37,69.8,77,20,12.75
474,Soyo,-6.13,12.37,67.5,96,0,3.83
475,Valdivia,-39.81,-73.25,51.8,100,90,4.7
476,Siderno,38.28,16.3,75.15,88,0,3.36
477,Ixtapa,20.71,-105.21,87.8,79,75,11.41
478,Manzhouli,49.6,117.43,68.13,81,0,5.17
479,Socastee,33.68,-79.0,84.54,83,75,4.7
480,Puerto Escondido,15.86,-97.07,86.0,66,90,5.82
481,Sangar,63.92,127.47,60.21,78,56,3.04
482,Daru,7.99,-10.85,71.28,99,88,5.39
483,Taoudenni,22.68,-3.98,90.63,30,44,2.71
484,Chico,39.73,-121.84,86.16,30,75,6.93
485,Chermoz,58.79,56.15,57.51,88,24,4.5
486,Gurun,5.82,100.48,78.8,88,75,2.24
487,Brumunddal,60.89,10.94,54.63,57,12,5.17
488,Lima,-12.06,-77.04,59.13,76,8,2.15
489,Te Anau,-45.41,167.72,44.1,94,24,3.6
490,Cascais,38.7,-9.42,80.85,61,0,13.87
491,La Ronge,55.1,-105.3,66.2,55,40,9.17
492,Conde,-11.81,-37.61,75.24,86,80,8.41
493,Kaiyuan,42.54,124.04,73.8,80,32,4.61
494,Napier,-39.49,176.92,57.6,94,8,9.42
495,Warmbad,50.67,13.08,59.5,82,0,2.24
496,Grand Gaube,-20.01,57.66,69.8,60,20,2.24
497,Tecolutla,17.31,-98.74,67.41,91,92,2.26
498,Abaza,52.65,90.1,56.43,97,92,2.82
499,Ribeira Brava,32.65,-17.07,75.2,78,20,6.93
500,Saint-Georges,46.12,-70.67,74.43,75,20,4.05
501,Mailsi,29.8,72.18,86.49,58,0,10.31
502,Burns Lake,54.23,-125.76,72.63,43,0,2.93
503,Kostino,41.7,25.3,73.4,60,0,5.82
504,Xingyi,24.19,102.82,60.66,100,92,2.59
505,Hobyo,5.35,48.53,74.43,86,0,17.25
506,Gari,59.43,62.35,51.48,82,92,5.73
507,Okhotsk,59.36,143.24,64.08,78,44,6.73
508,Shache,38.42,77.24,61.38,79,0,2.59
509,Montrose,-37.81,145.34,46.4,75,40,12.75
510,San Jose,15.79,120.99,73.08,100,88,2.93
511,Ahuimanu,21.44,-157.84,83.59,94,90,5.82
512,Carballo,43.21,-8.69,78.8,78,0,1.12
513,Juazeiro,-9.43,-40.51,86.0,33,0,5.82
514,Lempaala,60.41,30.35,64.4,88,0,6.71
515,Pizarro,4.95,-77.37,78.48,98,92,6.06
516,Redding,40.59,-122.39,89.71,19,1,8.05
517,Jackville,5.21,-4.42,77.0,73,20,9.17
518,Takoradi,4.89,-1.75,74.79,100,80,8.75
519,Vostok,46.45,135.83,69.39,75,0,2.71
520,Druzhba,49.36,25.65,64.26,96,8,8.41
521,Samarai,-10.62,150.67,78.3,99,56,14.67
522,San Policarpo,12.18,125.51,82.53,94,88,14.0
523,Grindavik,63.84,-22.43,55.74,76,40,9.17
524,Sulangan,11.14,123.72,82.44,99,64,17.02
